$GPRMC,000125.799,V,,,,,0.00,0.00,060180,,,N*43
$GPRMC,000126.799,V,,,,,0.00,0.00,060180,,,N*40
$GPRMC,000127.799,V,,,,,0.00,0.00,060180,,,N*41
$GPRMC,000128.799,V,,,,,0.00,0.00,060180,,,N*4E
$GPRMC,000129.799,V,,,,,0.00,0.00,060180,,,N*4F
$GPRMC,000130.799,V,,,,,0.00,0.00,060180,,,N*47
$GPRMC,000131.799,V,,,,,0.00,0.00,060180,,,N*46
$GPRMC,000132.799,V,,,,,0.00,0.00,060180,,,N*45
$GPRMC,000133.799,V,,,,,0.00,0.00,060180,,,N*44
$GPRMC,000134.799,V,,,,,0.00,0.00,060180,,,N*43
$GPRMC,000135.799,V,,,,,0.00,0.00,060180,,,N*42
$GPRMC,000136.799,V,,,,,0.00,0.00,060180,,,N*41
$GPRMC,000137.799,V,,,,,0.00,0.00,060180,,,N*40
$GPRMC,000138.799,V,,,,,0.00,0.00,060180,,,N*4F
$GPRMC,000139.799,V,,,,,0.00,0.00,060180,,,N*4E
$GPRMC,000140.799,V,,,,,0.00,0.00,060180,,,N*40
$GPRMC,000141.799,V,,,,,0.00,0.00,060180,,,N*41
$GPRMC,000142.799,V,,,,,0.00,0.00,060180,,,N*42
$GPRMC,000143.799,V,,,,,0.00,0.00,060180,,,N*43
$GPRMC,000144.799,V,,,,,0.00,0.00,060180,,,N*44
$GPRMC,000145.799,V,,,,,0.00,0.00,060180,,,N*45
$GPRMC,000146.799,V,,,,,0.00,0.00,060180,,,N*46
$GPRMC,000147.799,V,,,,,0.00,0.00,060180,,,N*47
$GPRMC,000148.799,V,,,,,0.00,0.00,060180,,,N*48
$GPRMC,000149.799,V,,,,,0.00,0.00,060180,,,N*49
$GPRMC,000150.800,V,,,,,0.00,0.00,060180,,,N*4E
$GPRMC,000151.800,V,,,,,0.00,0.00,060180,,,N*4F
$GPRMC,000152.800,V,,,,,0.00,0.00,060180,,,N*4C
$GPRMC,000153.800,V,,,,,0.00,0.00,060180,,,N*4D
$GPRMC,000154.800,V,,,,,0.00,0.00,060180,,,N*4A
$GPRMC,000155.800,V,,,,,0.00,0.00,060180,,,N*4B
$GPRMC,000156.800,V,,,,,0.00,0.00,060180,,,N*48
$GPRMC,000157.800,V,,,,,0.00,0.00,060180,,,N*49
$GPRMC,000158.800,V,,,,,0.00,0.00,060180,,,N*46
$GPRMC,000159.800,V,,,,,0.00,0.00,060180,,,N*47
$GPRMC,000200.800,V,,,,,0.00,0.00,060180,,,N*48
$GPRMC,000201.800,V,,,,,0.00,0.00,060180,,,N*49
$GPRMC,000202.800,V,,,,,0.00,0.00,060180,,,N*4A
$GPRMC,000203.800,V,,,,,0.00,0.00,060180,,,N*4B
$GPRMC,000204.800,V,,,,,0.00,0.00,060180,,,N*4C
$GPRMC,000205.800,V,,,,,0.00,0.00,060180,,,N*4D
$GPRMC,000206.800,V,,,,,0.00,0.00,060180,,,N*4E
$GPRMC,000207.800,V,,,,,0.00,0.00,060180,,,N*4F
$GPRMC,000208.800,V,,,,,0.00,0.00,060180,,,N*40
$GPRMC,000209.800,V,,,,,0.00,0.00,060180,,,N*41
$GPRMC,000210.800,V,,,,,0.00,0.00,060180,,,N*49
$GPRMC,000211.800,V,,,,,0.00,0.00,060180,,,N*48
$GPRMC,000212.800,V,,,,,0.00,0.00,060180,,,N*4B
$GPRMC,000213.800,V,,,,,0.00,0.00,060180,,,N*4A
$GPRMC,000214.800,V,,,,,0.00,0.00,060180,,,N*4D
$GPRMC,000215.800,V,,,,,0.00,0.00,060180,,,N*4C
$GPRMC,000216.800,V,,,,,0.00,0.00,060180,,,N*4F
$GPRMC,000217.800,V,,,,,0.00,0.00,060180,,,N*4E
$GPRMC,000218.800,V,,,,,0.00,0.00,060180,,,N*41
$GPRMC,000219.800,V,,,,,0.00,0.00,060180,,,N*40
$GPRMC,000220.800,V,,,,,0.00,0.00,060180,,,N*4A
$GPRMC,000221.800,V,,,,,0.00,0.00,060180,,,N*4B
$GPRMC,000222.800,V,,,,,0.00,0.00,060180,,,N*48
$GPRMC,000223.800,V,,,,,0.00,0.00,060180,,,N*49
$GPRMC,000224.800,V,,,,,0.00,0.00,060180,,,N*4E
$GPRMC,000225.800,V,,,,,0.00,0.00,060180,,,N*4F
$GPRMC,000226.800,V,,,,,0.00,0.00,060180,,,N*4C
$GPRMC,000227.800,V,,,,,0.00,0.00,060180,,,N*4D
$GPRMC,000228.800,V,,,,,0.00,0.00,060180,,,N*42
$GPRMC,000229.800,V,,,,,0.00,0.00,060180,,,N*43
$GPRMC,000230.800,V,,,,,0.00,0.00,060180,,,N*4B
$GPRMC,000231.800,V,,,,,0.00,0.00,060180,,,N*4A
$GPRMC,000232.800,V,,,,,0.00,0.00,060180,,,N*49
$GPRMC,000233.800,V,,,,,0.00,0.00,060180,,,N*48
$GPRMC,000234.800,V,,,,,0.00,0.00,060180,,,N*4F
$GPRMC,000235.800,V,,,,,0.00,0.00,060180,,,N*4E
$GPRMC,000236.800,V,,,,,0.00,0.00,060180,,,N*4D
$GPRMC,000237.800,V,,,,,0.00,0.00,060180,,,N*4C
$GPRMC,000238.800,V,,,,,0.00,0.00,060180,,,N*43
$GPRMC,000239.800,V,,,,,0.00,0.00,060180,,,N*42
$GPRMC,000240.800,V,,,,,0.00,0.00,060180,,,N*4C
$GPRMC,000241.800,V,,,,,0.00,0.00,060180,,,N*4D
$GPRMC,000242.800,V,,,,,0.00,0.00,060180,,,N*4E
$GPRMC,000243.800,V,,,,,0.00,0.00,060180,,,N*4F
$GPRMC,000244.800,V,,,,,0.00,0.00,060180,,,N*48
$GPRMC,000245.800,V,,,,,0.00,0.00,060180,,,N*49
$GPRMC,000246.800,V,,,,,0.00,0.00,060180,,,N*4A
$GPRMC,000247.800,V,,,,,0.00,0.00,060180,,,N*4B
$GPRMC,000248.800,V,,,,,0.00,0.00,060180,,,N*44
$GPRMC,000249.800,V,,,,,0.00,0.00,060180,,,N*45
$GPRMC,000250.800,V,,,,,0.00,0.00,060180,,,N*4D
$GPRMC,000251.800,V,,,,,0.00,0.00,060180,,,N*4C
$GPRMC,000252.800,V,,,,,0.00,0.00,060180,,,N*4F
$GPRMC,000253.800,V,,,,,0.00,0.00,060180,,,N*4E
$GPRMC,000254.800,V,,,,,0.00,0.00,060180,,,N*49
$GPRMC,000255.800,V,,,,,0.00,0.00,060180,,,N*48
$GPRMC,000256.800,V,,,,,0.00,0.00,060180,,,N*4B
$GPRMC,000257.800,V,,,,,0.00,0.00,060180,,,N*4A
$GPRMC,000258.800,V,,,,,0.00,0.00,060180,,,N*45
$GPRMC,000259.800,V,,,,,0.00,0.00,060180,,,N*44
$GPRMC,000300.800,V,,,,,0.00,0.00,060180,,,N*49
$GPRMC,000301.800,V,,,,,0.00,0.00,060180,,,N*48
$GPRMC,000302.800,V,,,,,0.00,0.00,060180,,,N*4B
$GPRMC,000303.800,V,,,,,0.00,0.00,060180,,,N*4A
$GPRMC,000304.800,V,,,,,0.00,0.00,060180,,,N*4D
$GPRMC,000305.800,V,,,,,0.00,0.00,060180,,,N*4C
$GPRMC,000306.800,V,,,,,0.00,0.00,060180,,,N*4F
$GPRMC,000307.800,V,,,,,0.00,0.00,060180,,,N*4E
$GPRMC,000308.800,V,,,,,0.00,0.00,060180,,,N*41
$GPRMC,000309.800,V,,,,,0.00,0.00,060180,,,N*40
$GPRMC,000310.800,V,,,,,0.00,0.00,060180,,,N*48
$GPRMC,000311.800,V,,,,,0.00,0.00,060180,,,N*49
$GPRMC,000312.800,V,,,,,0.00,0.00,060180,,,N*4A
$GPRMC,000313.800,V,,,,,0.00,0.00,060180,,,N*4B
$GPRMC,000314.800,V,,,,,0.00,0.00,060180,,,N*4C
$GPRMC,000315.800,V,,,,,0.00,0.00,060180,,,N*4D
$GPRMC,000316.800,V,,,,,0.00,0.00,060180,,,N*4E
$GPRMC,000317.800,V,,,,,0.00,0.00,060180,,,N*4F
$GPRMC,000318.800,V,,,,,0.00,0.00,060180,,,N*40
$GPRMC,000319.800,V,,,,,0.00,0.00,060180,,,N*41
$GPRMC,000320.800,V,,,,,0.00,0.00,060180,,,N*4B
$GPRMC,000321.800,V,,,,,0.00,0.00,060180,,,N*4A
$GPRMC,000322.800,V,,,,,0.00,0.00,060180,,,N*49
$GPRMC,000323.800,V,,,,,0.00,0.00,060180,,,N*48
$GPRMC,000324.800,V,,,,,0.00,0.00,060180,,,N*4F
$GPRMC,000325.800,V,,,,,0.00,0.00,060180,,,N*4E
$GPRMC,000326.800,V,,,,,0.00,0.00,060180,,,N*4D
$GPRMC,000327.800,V,,,,,0.00,0.00,060180,,,N*4C
$GPRMC,000328.800,V,,,,,0.00,0.00,060180,,,N*43
$GPRMC,000329.800,V,,,,,0.00,0.00,060180,,,N*42
$GPRMC,000330.800,V,,,,,0.00,0.00,060180,,,N*4A
$GPRMC,000331.800,V,,,,,0.00,0.00,060180,,,N*4B
$GPRMC,000332.800,V,,,,,0.00,0.00,060180,,,N*48
$GPRMC,000333.800,V,,,,,0.00,0.00,060180,,,N*49
$GPRMC,000334.800,V,,,,,0.00,0.00,060180,,,N*4E
$GPRMC,000335.800,V,,,,,0.00,0.00,060180,,,N*4F
$GPRMC,000336.800,V,,,,,0.00,0.00,060180,,,N*4C
$GPRMC,000337.800,V,,,,,0.00,0.00,060180,,,N*4D
$GPRMC,000338.800,V,,,,,0.00,0.00,060180,,,N*42
$GPRMC,000339.800,V,,,,,0.00,0.00,060180,,,N*43
$GPRMC,000340.800,V,,,,,0.00,0.00,060180,,,N*4D
$GPRMC,000341.800,V,,,,,0.00,0.00,060180,,,N*4C
$GPRMC,000342.800,V,,,,,0.00,0.00,060180,,,N*4F
$GPRMC,000343.800,V,,,,,0.00,0.00,060180,,,N*4E
$GPRMC,000344.800,V,,,,,0.00,0.00,060180,,,N*49
$GPRMC,000345.800,V,,,,,0.00,0.00,060180,,,N*48
$GPRMC,000346.800,V,,,,,0.00,0.00,060180,,,N*4B
$GPRMC,000347.800,V,,,,,0.00,0.00,060180,,,N*4A
$GPRMC,000348.800,V,,,,,0.00,0.00,060180,,,N*45
$GPRMC,000349.800,V,,,,,0.00,0.00,060180,,,N*44
$GPRMC,000350.800,V,,,,,0.00,0.00,060180,,,N*4C
$GPRMC,000351.800,V,,,,,0.00,0.00,060180,,,N*4D
$GPRMC,000352.800,V,,,,,0.00,0.00,060180,,,N*4E
$GPRMC,000353.800,V,,,,,0.00,0.00,060180,,,N*4F
$GPRMC,000354.800,V,,,,,0.00,0.00,060180,,,N*48
$GPRMC,000355.800,V,,,,,0.00,0.00,060180,,,N*49
$GPRMC,000356.800,V,,,,,0.00,0.00,060180,,,N*4A
$GPRMC,000357.800,V,,,,,0.00,0.00,060180,,,N*4B
$GPRMC,000358.800,V,,,,,0.00,0.00,060180,,,N*44
$GPRMC,000359.800,V,,,,,0.00,0.00,060180,,,N*45
$GPRMC,000400.800,V,,,,,0.00,0.00,060180,,,N*4E
$GPRMC,000401.800,V,,,,,0.00,0.00,060180,,,N*4F
$GPRMC,000402.800,V,,,,,0.00,0.00,060180,,,N*4C
$GPRMC,000403.800,V,,,,,0.00,0.00,060180,,,N*4D
$GPRMC,000404.800,V,,,,,0.00,0.00,060180,,,N*4A
$GPRMC,000405.471,V,,,,,0.00,0.00,060180,,,N*41
$GPRMC,000406.471,V,,,,,0.00,0.00,060180,,,N*42
$GPRMC,193920.086,V,,,,,0.00,0.00,060180,,,N*4C
$GPRMC,193921.086,V,,,,,0.00,0.00,060180,,,N*4D
$GPRMC,193922.086,V,,,,,0.00,0.00,060180,,,N*4E
$GPRMC,193923.086,V,,,,,0.00,0.00,060180,,,N*4F
$GPRMC,193924.086,V,,,,,0.00,0.00,060180,,,N*48
$GPRMC,193925.086,V,,,,,0.00,0.00,060180,,,N*49
$GPRMC,193926.086,V,,,,,0.00,0.00,060180,,,N*4A
$GPRMC,193927.086,V,,,,,0.00,0.00,060180,,,N*4B
$GPRMC,193928.086,V,,,,,0.00,0.00,060180,,,N*44
$GPRMC,193929.086,V,,,,,0.00,0.00,060180,,,N*45
$GPRMC,193930.086,V,,,,,0.00,0.00,250218,,,N*4E
$GPRMC,193931.086,V,,,,,0.00,0.00,250218,,,N*4F
$GPRMC,193932.086,V,,,,,0.00,0.00,250218,,,N*4C
$GPRMC,193933.086,V,,,,,0.00,0.00,250218,,,N*4D
$GPRMC,193934.086,V,,,,,0.00,0.00,250218,,,N*4A
$GPRMC,193935.086,V,,,,,0.00,0.00,250218,,,N*4B
$GPRMC,193936.086,V,,,,,0.00,0.00,250218,,,N*48
$GPRMC,193937.086,V,,,,,0.00,0.00,250218,,,N*49
$GPRMC,193938.086,V,,,,,0.00,0.00,250218,,,N*46
$GPRMC,193939.086,V,,,,,0.00,0.00,250218,,,N*47
$GPRMC,193940.086,V,,,,,0.00,0.00,250218,,,N*49
$GPRMC,193941.086,V,,,,,0.00,0.00,250218,,,N*48
$GPRMC,193942.081,V,,,,,0.00,0.00,250218,,,N*4C
$GPRMC,193942.301,V,,,,,0.00,0.00,250218,,,N*47
$GPRMC,193943.301,V,,,,,0.00,0.00,250218,,,N*46
$GPRMC,193944.301,V,,,,,0.00,0.00,250218,,,N*41
$GPRMC,193945.301,V,,,,,0.00,0.00,250218,,,N*40
$GPRMC,193946.301,V,,,,,0.00,0.00,250218,,,N*43
$GPRMC,193947.301,V,,,,,0.00,0.00,250218,,,N*42
$GPRMC,193948.081,V,,,,,0.00,0.00,250218,,,N*46
$GPRMC,193948.301,V,,,,,0.00,0.00,250218,,,N*4D
$GPRMC,193949.301,V,,,,,0.00,0.00,250218,,,N*4C
$GPRMC,193950.301,V,,,,,0.00,0.00,250218,,,N*44
$GPRMC,193951.301,V,,,,,0.00,0.00,250218,,,N*45
$GPRMC,193952.301,V,,,,,0.00,0.00,250218,,,N*46
$GPRMC,193953.301,V,,,,,0.00,0.00,250218,,,N*47
$GPRMC,193954.081,V,,,,,0.00,0.00,250218,,,N*4B
$GPRMC,193954.301,V,,,,,0.00,0.00,250218,,,N*40
$GPRMC,193955.301,V,,,,,0.00,0.00,250218,,,N*41
$GPRMC,193956.301,V,,,,,0.00,0.00,250218,,,N*42
$GPRMC,193957.301,V,,,,,0.00,0.00,250218,,,N*43
$GPRMC,193958.301,V,,,,,0.00,0.00,250218,,,N*4C
$GPRMC,193959.301,V,,,,,0.00,0.00,250218,,,N*4D
$GPRMC,194000.096,V,,,,,0.00,0.00,250218,,,N*42
$GPRMC,194001.096,V,,,,,0.00,0.00,250218,,,N*43
$GPRMC,194002.096,V,,,,,0.00,0.00,250218,,,N*40
$GPRMC,194003.096,V,,,,,0.00,0.00,250218,,,N*41
$GPRMC,194004.096,V,,,,,0.00,0.00,250218,,,N*46
$GPRMC,194005.096,V,,,,,0.00,0.00,250218,,,N*47
$GPRMC,194006.091,V,,,,,0.00,0.00,250218,,,N*43
$GPRMC,194007.091,V,,,,,0.00,0.00,250218,,,N*42
$GPRMC,194008.091,V,,,,,0.00,0.00,250218,,,N*4D
$GPRMC,194009.091,V,,,,,0.00,0.00,250218,,,N*4C
$GPRMC,194010.091,V,,,,,0.00,0.00,250218,,,N*44
$GPRMC,194011.091,V,,,,,0.00,0.00,250218,,,N*45
$GPRMC,194012.091,V,,,,,0.00,0.00,250218,,,N*46
$GPRMC,194013.091,V,,,,,0.00,0.00,250218,,,N*47
$GPRMC,194014.091,V,,,,,0.00,0.00,250218,,,N*40
$GPRMC,194015.091,V,,,,,0.00,0.00,250218,,,N*41
$GPRMC,194016.091,V,,,,,0.00,0.00,250218,,,N*42
$GPRMC,194017.091,V,,,,,0.00,0.00,250218,,,N*43
$GPRMC,194018.091,V,,,,,0.00,0.00,250218,,,N*4C
$GPRMC,194019.091,V,,,,,0.00,0.00,250218,,,N*4D
$GPRMC,194020.091,V,,,,,0.00,0.00,250218,,,N*47
$GPRMC,194021.091,V,,,,,0.00,0.00,250218,,,N*46
$GPRMC,194022.091,V,,,,,0.00,0.00,250218,,,N*45
$GPRMC,194023.091,V,,,,,0.00,0.00,250218,,,N*44
$GPRMC,194024.091,V,,,,,0.00,0.00,250218,,,N*43
$GPRMC,194025.091,V,,,,,0.00,0.00,250218,,,N*42
$GPRMC,194026.091,V,,,,,0.00,0.00,250218,,,N*41
$GPRMC,194027.091,V,,,,,0.00,0.00,250218,,,N*40
$GPRMC,194028.091,V,,,,,0.00,0.00,250218,,,N*4F
$GPRMC,194029.091,V,,,,,0.00,0.00,250218,,,N*4E
$GPRMC,194030.091,V,,,,,0.00,0.00,250218,,,N*46
$GPRMC,194031.091,V,,,,,0.00,0.00,250218,,,N*47
$GPRMC,194032.091,V,,,,,0.00,0.00,250218,,,N*44
$GPRMC,194033.091,V,,,,,0.00,0.00,250218,,,N*45
$GPRMC,194034.091,V,,,,,0.00,0.00,250218,,,N*42
$GPRMC,194035.091,V,,,,,0.00,0.00,250218,,,N*43
$GPRMC,194036.091,V,,,,,0.00,0.00,250218,,,N*40
$GPRMC,194037.091,V,,,,,0.00,0.00,250218,,,N*41
$GPRMC,194038.091,V,,,,,0.00,0.00,250218,,,N*4E
$GPRMC,194039.091,V,,,,,0.00,0.00,250218,,,N*4F
$GPRMC,194040.091,V,,,,,0.00,0.00,250218,,,N*41
$GPRMC,194041.091,V,,,,,0.00,0.00,250218,,,N*40
$GPRMC,194042.081,V,,,,,0.00,0.00,250218,,,N*42
$GPRMC,194042.301,V,,,,,0.00,0.00,250218,,,N*49
$GPRMC,194043.301,V,,,,,0.00,0.00,250218,,,N*48
$GPRMC,194044.301,V,,,,,0.00,0.00,250218,,,N*4F
$GPRMC,194045.301,V,,,,,0.00,0.00,250218,,,N*4E
$GPRMC,194046.301,V,,,,,0.00,0.00,250218,,,N*4D
$GPRMC,194047.301,V,,,,,0.00,0.00,250218,,,N*4C
$GPRMC,194048.096,V,,,,,0.00,0.00,250218,,,N*4E
$GPRMC,194049.096,V,,,,,0.00,0.00,250218,,,N*4F
$GPRMC,194050.096,V,,,,,0.00,0.00,250218,,,N*47
$GPRMC,194051.096,V,,,,,0.00,0.00,250218,,,N*46
$GPRMC,194052.096,V,,,,,0.00,0.00,250218,,,N*45
$GPRMC,194053.096,V,,,,,0.00,0.00,250218,,,N*44
$GPRMC,194054.096,V,,,,,0.00,0.00,250218,,,N*43
$GPRMC,194055.096,V,,,,,0.00,0.00,250218,,,N*42
$GPRMC,194056.096,V,,,,,0.00,0.00,250218,,,N*41
$GPRMC,194057.096,V,,,,,0.00,0.00,250218,,,N*40
$GPRMC,194058.096,V,,,,,0.00,0.00,250218,,,N*4F
$GPRMC,194059.096,V,,,,,0.00,0.00,250218,,,N*4E
$GPRMC,194100.096,V,,,,,0.00,0.00,250218,,,N*43
$GPRMC,194101.096,V,,,,,0.00,0.00,250218,,,N*42
$GPRMC,194102.096,V,,,,,0.00,0.00,250218,,,N*41
$GPRMC,194103.096,V,,,,,0.00,0.00,250218,,,N*40
$GPRMC,194104.096,V,,,,,0.00,0.00,250218,,,N*47
$GPRMC,194105.096,V,,,,,0.00,0.00,250218,,,N*46
$GPRMC,194106.096,V,,,,,0.00,0.00,250218,,,N*45
$GPRMC,194107.096,V,,,,,0.00,0.00,250218,,,N*44
$GPRMC,194108.096,V,,,,,0.00,0.00,250218,,,N*4B
$GPRMC,194109.096,V,,,,,0.00,0.00,250218,,,N*4A
$GPRMC,194110.096,V,,,,,0.00,0.00,250218,,,N*42
$GPRMC,194111.096,V,,,,,0.00,0.00,250218,,,N*43
$GPRMC,194112.081,V,,,,,0.00,0.00,250218,,,N*46
$GPRMC,194112.301,V,,,,,0.00,0.00,250218,,,N*4D
$GPRMC,194113.301,V,,,,,0.00,0.00,250218,,,N*4C
$GPRMC,194114.301,V,,,,,0.00,0.00,250218,,,N*4B
$GPRMC,194115.301,V,,,,,0.00,0.00,250218,,,N*4A
$GPRMC,194116.301,V,,,,,0.00,0.00,250218,,,N*49
$GPRMC,194117.301,V,,,,,0.00,0.00,250218,,,N*48
$GPRMC,194118.081,V,,,,,0.00,0.00,250218,,,N*4C
$GPRMC,194119.081,V,,,,,0.00,0.00,250218,,,N*4D
$GPRMC,194120.081,V,,,,,0.00,0.00,250218,,,N*47
$GPRMC,194121.081,V,,,,,0.00,0.00,250218,,,N*46
$GPRMC,194122.081,V,,,,,0.00,0.00,250218,,,N*45
$GPRMC,194123.081,V,,,,,0.00,0.00,250218,,,N*44
$GPRMC,194124.081,V,,,,,0.00,0.00,250218,,,N*43
$GPRMC,194124.301,V,,,,,0.00,0.00,250218,,,N*48
$GPRMC,194125.301,V,,,,,0.00,0.00,250218,,,N*49
$GPRMC,194126.301,V,,,,,0.00,0.00,250218,,,N*4A
$GPRMC,194127.301,V,,,,,0.00,0.00,250218,,,N*4B
$GPRMC,194128.301,V,,,,,0.00,0.00,250218,,,N*44
$GPRMC,194129.301,V,,,,,0.00,0.00,250218,,,N*45
$GPRMC,194130.085,V,,,,,0.00,0.00,250218,,,N*42
$GPRMC,194131.085,V,,,,,0.00,0.00,250218,,,N*43
$GPRMC,194132.085,V,,,,,0.00,0.00,250218,,,N*40
$GPRMC,194133.085,V,,,,,0.00,0.00,250218,,,N*41
$GPRMC,194134.085,V,,,,,0.00,0.00,250218,,,N*46
$GPRMC,194135.085,V,,,,,0.00,0.00,250218,,,N*47
$GPRMC,194136.085,V,,,,,0.00,0.00,250218,,,N*44
$GPRMC,194137.085,V,,,,,0.00,0.00,250218,,,N*45
$GPRMC,194138.085,V,,,,,0.00,0.00,250218,,,N*4A
$GPRMC,194139.085,V,,,,,0.00,0.00,250218,,,N*4B
$GPRMC,194140.085,V,,,,,0.00,0.00,250218,,,N*45
$GPRMC,194141.085,V,,,,,0.00,0.00,250218,,,N*44
$GPRMC,194142.085,V,,,,,0.00,0.00,250218,,,N*47
$GPRMC,194143.085,V,,,,,0.00,0.00,250218,,,N*46
$GPRMC,194144.085,V,,,,,0.00,0.00,250218,,,N*41
$GPRMC,194145.085,V,,,,,0.00,0.00,250218,,,N*40
$GPRMC,194146.085,V,,,,,0.00,0.00,250218,,,N*43
$GPRMC,194147.085,V,,,,,0.00,0.00,250218,,,N*42
$GPRMC,194148.085,V,,,,,0.00,0.00,250218,,,N*4D
$GPRMC,194149.085,V,,,,,0.00,0.00,250218,,,N*4C
$GPRMC,194150.085,V,,,,,0.00,0.00,250218,,,N*44
$GPRMC,194151.085,V,,,,,0.00,0.00,250218,,,N*45
$GPRMC,194152.085,V,,,,,0.00,0.00,250218,,,N*46
$GPRMC,194153.085,V,,,,,0.00,0.00,250218,,,N*47
$GPRMC,194154.085,V,,,,,0.00,0.00,250218,,,N*40
$GPRMC,194155.085,V,,,,,0.00,0.00,250218,,,N*41
$GPRMC,194156.085,V,,,,,0.00,0.00,250218,,,N*42
$GPRMC,194157.085,V,,,,,0.00,0.00,250218,,,N*43
$GPRMC,194158.085,V,,,,,0.00,0.00,250218,,,N*4C
$GPRMC,194159.085,V,,,,,0.00,0.00,250218,,,N*4D
$GPRMC,194200.085,V,,,,,0.00,0.00,250218,,,N*42
$GPRMC,194201.085,V,,,,,0.00,0.00,250218,,,N*43
$GPRMC,194202.085,V,,,,,0.00,0.00,250218,,,N*40
$GPRMC,194203.085,V,,,,,0.00,0.00,250218,,,N*41
$GPRMC,194204.085,V,,,,,0.00,0.00,250218,,,N*46
$GPRMC,194205.085,V,,,,,0.00,0.00,250218,,,N*47
$GPRMC,194206.084,V,,,,,0.00,0.00,250218,,,N*45
$GPRMC,194206.304,V,,,,,0.00,0.00,250218,,,N*4E
$GPRMC,194207.304,V,,,,,0.00,0.00,250218,,,N*4F
$GPRMC,194208.304,V,,,,,0.00,0.00,250218,,,N*40
$GPRMC,194209.304,V,,,,,0.00,0.00,250218,,,N*41
$GPRMC,194210.304,V,,,,,0.00,0.00,250218,,,N*49
$GPRMC,194211.304,V,,,,,0.00,0.00,250218,,,N*48
$GPRMC,194212.089,V,,,,,0.00,0.00,250218,,,N*4D
$GPRMC,194213.089,V,,,,,0.00,0.00,250218,,,N*4C
$GPRMC,194214.089,V,,,,,0.00,0.00,250218,,,N*4B
$GPRMC,194215.089,V,,,,,0.00,0.00,250218,,,N*4A
$GPRMC,194216.089,V,,,,,0.00,0.00,250218,,,N*49
$GPRMC,194217.089,V,,,,,0.00,0.00,250218,,,N*48
$GPRMC,194218.089,V,,,,,0.00,0.00,250218,,,N*47
$GPRMC,194219.089,V,,,,,0.00,0.00,250218,,,N*46
$GPRMC,194220.089,V,,,,,0.00,0.00,250218,,,N*4C
$GPRMC,194221.089,V,,,,,0.00,0.00,250218,,,N*4D
$GPRMC,194222.101,V,,,,,0.00,0.00,250218,,,N*4F
$GPRMC,194223.101,V,,,,,0.00,0.00,250218,,,N*4E
$GPRMC,194224.101,V,,,,,0.00,0.00,250218,,,N*49
$GPRMC,194225.101,V,,,,,0.00,0.00,250218,,,N*48
$GPRMC,194226.101,V,,,,,0.00,0.00,250218,,,N*4B
$GPRMC,194227.101,V,,,,,0.00,0.00,250218,,,N*4A
$GPRMC,194228.101,V,,,,,0.00,0.00,250218,,,N*45
$GPRMC,194229.101,V,,,,,0.00,0.00,250218,,,N*44
$GPRMC,194230.097,V,,,,,0.00,0.00,250218,,,N*42
$GPRMC,194230.317,V,,,,,0.00,0.00,250218,,,N*49
$GPRMC,194231.317,V,,,,,0.00,0.00,250218,,,N*48
$GPRMC,194232.317,V,,,,,0.00,0.00,250218,,,N*4B
$GPRMC,194233.317,V,,,,,0.00,0.00,250218,,,N*4A
$GPRMC,194234.317,V,,,,,0.00,0.00,250218,,,N*4D
$GPRMC,194235.317,V,,,,,0.00,0.00,250218,,,N*4C
$GPRMC,194236.103,V,,,,,0.00,0.00,250218,,,N*48
$GPRMC,194237.097,V,,,,,0.00,0.00,250218,,,N*45
$GPRMC,194238.097,V,,,,,0.00,0.00,250218,,,N*4A
$GPRMC,194239.097,V,,,,,0.00,0.00,250218,,,N*4B
$GPRMC,194240.097,V,,,,,0.00,0.00,250218,,,N*45
$GPRMC,194241.097,V,,,,,0.00,0.00,250218,,,N*44
$GPRMC,194242.097,V,,,,,0.00,0.00,250218,,,N*47
$GPRMC,194243.097,V,,,,,0.00,0.00,250218,,,N*46
$GPRMC,194244.097,V,,,,,0.00,0.00,250218,,,N*41
$GPRMC,194245.097,V,,,,,0.00,0.00,250218,,,N*40
$GPRMC,194246.097,V,,,,,0.00,0.00,250218,,,N*43
$GPRMC,194247.097,V,,,,,0.00,0.00,250218,,,N*42
$GPRMC,194248.097,V,,,,,0.00,0.00,250218,,,N*4D
$GPRMC,194249.097,V,,,,,0.00,0.00,250218,,,N*4C
$GPRMC,194250.097,V,,,,,0.00,0.00,250218,,,N*44
$GPRMC,194251.097,V,,,,,0.00,0.00,250218,,,N*45
$GPRMC,194252.097,V,,,,,0.00,0.00,250218,,,N*46
$GPRMC,194253.097,V,,,,,0.00,0.00,250218,,,N*47
$GPRMC,194254.085,V,,,,,0.40,144.44,250218,,,N*46
$GPRMC,194255.085,V,,,,,0.53,228.73,250218,,,N*48
$GPRMC,194256.085,A,3214.2043,N,11057.1109,W,0.53,226.64,250218,,,A*78
$GPRMC,194258.000,A,3214.2047,N,11057.1109,W,0.53,217.20,250218,,,A*7D
$GPRMC,194259.000,A,3214.2051,N,11057.1109,W,0.44,201.93,250218,,,A*72
$GPRMC,194300.000,A,3214.2050,N,11057.1108,W,0.49,192.76,250218,,,A*70
$GPRMC,194301.000,A,3214.2052,N,11057.1108,W,0.33,216.08,250218,,,A*78
$GPRMC,194302.000,A,3214.2052,N,11057.1106,W,0.34,217.73,250218,,,A*7F
$GPRMC,194303.000,A,3214.2049,N,11057.1106,W,0.42,209.88,250218,,,A*7E
$GPRMC,194304.000,A,3214.2048,N,11057.1106,W,0.25,228.03,250218,,,A*79
$GPRMC,194305.000,A,3214.2049,N,11057.1104,W,0.14,293.43,250218,,,A*7D
$GPRMC,194306.000,A,3214.2045,N,11057.1101,W,0.13,142.23,250218,,,A*79
$GPRMC,194307.000,A,3214.2044,N,11057.1098,W,0.17,131.89,250218,,,A*78
$GPRMC,194308.000,A,3214.2044,N,11057.1096,W,0.13,121.64,250218,,,A*7F
$GPRMC,194309.000,A,3214.2044,N,11057.1094,W,0.17,104.96,250218,,,A*72
$GPRMC,194310.000,A,3214.2044,N,11057.1091,W,0.24,97.83,250218,,,A*40
$GPRMC,194311.000,A,3214.2043,N,11057.1088,W,0.28,116.13,250218,,,A*73
$GPRMC,194312.000,A,3214.2043,N,11057.1087,W,0.27,83.82,250218,,,A*45
$GPRMC,194313.000,A,3214.2042,N,11057.1085,W,0.36,97.15,250218,,,A*4C
$GPRMC,194314.000,A,3214.2041,N,11057.1084,W,0.37,84.44,250218,,,A*4E
$GPRMC,194315.000,A,3214.2041,N,11057.1083,W,0.36,65.03,250218,,,A*45
$GPRMC,194316.000,A,3214.2041,N,11057.1082,W,0.30,60.25,250218,,,A*40
$GPRMC,194317.000,A,3214.2041,N,11057.1082,W,0.23,34.72,250218,,,A*40
$GPRMC,194318.000,A,3214.2041,N,11057.1082,W,0.20,3.36,250218,,,A*78
$GPRMC,194319.000,A,3214.2041,N,11057.1082,W,0.13,349.56,250218,,,A*72
$GPRMC,194320.000,A,3214.2040,N,11057.1081,W,0.02,55.85,250218,,,A*4A
$GPRMC,194321.000,A,3214.2039,N,11057.1082,W,0.05,173.30,250218,,,A*7A
$GPRMC,194322.000,A,3214.2037,N,11057.1083,W,0.03,197.04,250218,,,A*7D
$GPRMC,194323.000,A,3214.2033,N,11057.1084,W,0.17,173.24,250218,,,A*72
$GPRMC,194324.000,A,3214.2032,N,11057.1085,W,0.10,170.29,250218,,,A*7C
$GPRMC,194325.000,A,3214.2032,N,11057.1085,W,0.03,133.39,250218,,,A*79
$GPRMC,194326.000,A,3214.2032,N,11057.1084,W,0.14,112.68,250218,,,A*7A
$GPRMC,194327.000,A,3214.2032,N,11057.1084,W,0.15,79.17,250218,,,A*4E
$GPRMC,194328.000,A,3214.2032,N,11057.1083,W,0.15,74.60,250218,,,A*4B
$GPRMC,194329.000,A,3214.2031,N,11057.1083,W,0.18,108.52,250218,,,A*7F
$GPRMC,194330.000,A,3214.2031,N,11057.1083,W,0.15,63.47,250218,,,A*42
$GPRMC,194331.000,A,3214.2031,N,11057.1083,W,0.15,57.95,250218,,,A*4B
$GPRMC,194332.000,A,3214.2031,N,11057.1083,W,0.10,52.93,250218,,,A*4E
$GPRMC,194333.000,A,3214.2034,N,11057.1085,W,0.23,336.75,250218,,,A*75
$GPRMC,194334.000,A,3214.2033,N,11057.1085,W,0.15,324.66,250218,,,A*71
$GPRMC,194335.000,A,3214.2034,N,11057.1085,W,0.12,350.62,250218,,,A*77
$GPRMC,194336.000,A,3214.2033,N,11057.1087,W,0.17,328.73,250218,,,A*7B
$GPRMC,194337.000,A,3214.2035,N,11057.1085,W,0.17,355.85,250218,,,A*7D
$GPRMC,194338.000,A,3214.2035,N,11057.1085,W,0.17,357.97,250218,,,A*73
$GPRMC,194339.000,A,3214.2034,N,11057.1085,W,0.04,121.76,250218,,,A*7D
$GPRMC,194340.000,A,3214.2034,N,11057.1084,W,0.08,131.68,250218,,,A*70
$GPRMC,194341.000,A,3214.2035,N,11057.1083,W,0.11,121.54,250218,,,A*71
$GPRMC,194342.000,A,3214.2037,N,11057.1079,W,0.28,68.27,250218,,,A*47
$GPRMC,194343.000,A,3214.2039,N,11057.1076,W,0.46,58.39,250218,,,A*43
$GPRMC,194344.000,A,3214.2042,N,11057.1072,W,0.56,53.81,250218,,,A*45
$GPRMC,194345.000,A,3214.2043,N,11057.1070,W,0.67,54.18,250218,,,A*42
$GPRMC,194346.000,A,3214.2047,N,11057.1067,W,0.85,45.89,250218,,,A*47
$GPRMC,194347.000,A,3214.2048,N,11057.1066,W,0.80,47.09,250218,,,A*47
$GPRMC,194348.000,A,3214.2048,N,11057.1065,W,0.69,50.96,250218,,,A*4C
$GPRMC,194349.000,A,3214.2051,N,11057.1064,W,0.76,39.80,250218,,,A*42
$GPRMC,194350.000,A,3214.2054,N,11057.1064,W,0.81,26.63,250218,,,A*44
$GPRMC,194351.000,A,3214.2057,N,11057.1063,W,0.80,21.96,250218,,,A*4D
$GPRMC,194352.000,A,3214.2060,N,11057.1063,W,0.81,20.69,250218,,,A*4A
$GPRMC,194353.000,A,3214.2062,N,11057.1063,W,0.88,16.55,250218,,,A*4A
$GPRMC,194354.000,A,3214.2062,N,11057.1065,W,0.73,11.77,250218,,,A*48
$GPRMC,194355.000,A,3214.2063,N,11057.1066,W,0.61,10.27,250218,,,A*4C
$GPRMC,194356.000,A,3214.2066,N,11057.1065,W,0.71,11.98,250218,,,A*4D
$GPRMC,194357.000,A,3214.2067,N,11057.1066,W,0.74,11.39,250218,,,A*40
$GPRMC,194358.000,A,3214.2067,N,11057.1067,W,0.74,10.77,250218,,,A*45
$GPRMC,194359.000,A,3214.2069,N,11057.1065,W,0.72,19.68,250218,,,A*49
$GPRMC,194400.000,A,3214.2071,N,11057.1063,W,0.84,26.62,250218,,,A*42
$GPRMC,194401.000,A,3214.2071,N,11057.1063,W,0.85,26.12,250218,,,A*45
$GPRMC,194402.000,A,3214.2069,N,11057.1065,W,0.65,25.75,250218,,,A*45
$GPRMC,194403.000,A,3214.2068,N,11057.1069,W,0.48,12.16,250218,,,A*47
$GPRMC,194404.000,A,3214.2067,N,11057.1071,W,0.48,4.04,250218,,,A*72
$GPRMC,194405.000,A,3214.2066,N,11057.1073,W,0.49,1.83,250218,,,A*7B
$GPRMC,194406.000,A,3214.2065,N,11057.1075,W,0.50,4.61,250218,,,A*7C
$GPRMC,194407.000,A,3214.2067,N,11057.1075,W,0.62,2.69,250218,,,A*70
$GPRMC,194408.000,A,3214.2064,N,11057.1079,W,0.43,347.46,250218,,,A*7C
$GPRMC,194409.000,A,3214.2062,N,11057.1081,W,0.31,327.74,250218,,,A*7E
$GPRMC,194410.000,A,3214.2059,N,11057.1084,W,0.22,319.32,250218,,,A*76
$GPRMC,194411.000,A,3214.2056,N,11057.1091,W,0.31,287.62,250218,,,A*7D
$GPRMC,194412.000,A,3214.2056,N,11057.1092,W,0.34,312.39,250218,,,A*7B
$GPRMC,194413.000,A,3214.2057,N,11057.1093,W,0.25,305.94,250218,,,A*7B
$GPRMC,194414.000,A,3214.2057,N,11057.1093,W,0.16,329.75,250218,,,A*7D
$GPRMC,194415.000,A,3214.2058,N,11057.1094,W,0.15,322.97,250218,,,A*70
$GPRMC,194416.000,A,3214.2058,N,11057.1094,W,0.15,318.42,250218,,,A*72
$GPRMC,194417.000,A,3214.2058,N,11057.1094,W,0.19,322.01,250218,,,A*71
$GPRMC,194418.000,A,3214.2059,N,11057.1095,W,0.18,278.49,250218,,,A*7D
$GPRMC,194419.000,A,3214.2059,N,11057.1095,W,0.22,283.12,250218,,,A*7F
$GPRMC,194420.000,A,3214.2059,N,11057.1096,W,0.23,292.57,250218,,,A*76
$GPRMC,194421.000,A,3214.2059,N,11057.1097,W,0.23,273.12,250218,,,A*78
$GPRMC,194422.000,A,3214.2059,N,11057.1098,W,0.30,257.66,250218,,,A*73
$GPRMC,194423.000,A,3214.2059,N,11057.1099,W,0.27,259.32,250218,,,A*7A
$GPRMC,194424.000,A,3214.2059,N,11057.1100,W,0.28,265.31,250218,,,A*7F
$GPRMC,194425.000,A,3214.2059,N,11057.1101,W,0.24,253.67,250218,,,A*75
$GPRMC,194426.000,A,3214.2059,N,11057.1101,W,0.30,255.89,250218,,,A*75
$GPRMC,194427.000,A,3214.2059,N,11057.1102,W,0.22,266.31,250218,,,A*77
$GPRMC,194428.000,A,3214.2058,N,11057.1103,W,0.31,251.68,250218,,,A*72
$GPRMC,194429.000,A,3214.2058,N,11057.1104,W,0.38,241.15,250218,,,A*76
$GPRMC,194430.000,A,3214.2058,N,11057.1105,W,0.32,261.94,250218,,,A*7E
$GPRMC,194431.000,A,3214.2058,N,11057.1106,W,0.37,251.53,250218,,,A*71
$GPRMC,194432.000,A,3214.2057,N,11057.1107,W,0.38,250.44,250218,,,A*74
$GPRMC,194433.000,A,3214.2057,N,11057.1109,W,0.32,259.97,250218,,,A*76
$GPRMC,194434.000,A,3214.2057,N,11057.1110,W,0.29,268.60,250218,,,A*79
$GPRMC,194435.000,A,3214.2057,N,11057.1111,W,0.33,260.83,250218,,,A*77
$GPRMC,194436.000,A,3214.2057,N,11057.1112,W,0.34,276.60,250218,,,A*7A
$GPRMC,194437.000,A,3214.2057,N,11057.1113,W,0.35,300.04,250218,,,A*79
$GPRMC,194438.000,A,3214.2058,N,11057.1114,W,0.39,286.42,250218,,,A*7F
$GPRMC,194439.000,A,3214.2058,N,11057.1115,W,0.40,302.99,250218,,,A*7A
$GPRMC,194440.000,A,3214.2059,N,11057.1116,W,0.37,306.82,250218,,,A*78
$GPRMC,194441.000,A,3214.2060,N,11057.1117,W,0.39,312.54,250218,,,A*72
$GPRMC,194442.000,A,3214.2060,N,11057.1118,W,0.43,323.43,250218,,,A*77
$GPRMC,194443.000,A,3214.2061,N,11057.1119,W,0.38,322.45,250218,,,A*7D
$GPRMC,194444.000,A,3214.2062,N,11057.1120,W,0.31,307.62,250218,,,A*78
$GPRMC,194445.000,A,3214.2063,N,11057.1121,W,0.35,310.32,250218,,,A*7E
$GPRMC,194446.000,A,3214.2063,N,11057.1122,W,0.39,311.16,250218,,,A*75
$GPRMC,194447.000,A,3214.2064,N,11057.1123,W,0.43,311.86,250218,,,A*76
$GPRMC,194448.000,A,3214.2065,N,11057.1124,W,0.45,302.93,250218,,,A*7F
$GPRMC,194449.000,A,3214.2066,N,11057.1125,W,0.50,283.95,250218,,,A*76
$GPRMC,194450.000,A,3214.2066,N,11057.1127,W,0.59,265.28,250218,,,A*7B
$GPRMC,194451.000,A,3214.2066,N,11057.1130,W,0.63,261.80,250218,,,A*73
$GPRMC,194452.000,A,3214.2068,N,11057.1134,W,0.64,263.75,250218,,,A*75
$GPRMC,194453.000,A,3214.2070,N,11057.1137,W,0.60,262.85,250218,,,A*74
$GPRMC,194454.000,A,3214.2073,N,11057.1139,W,0.56,263.69,250218,,,A*78
$GPRMC,194455.000,A,3214.2073,N,11057.1141,W,0.47,247.39,250218,,,A*75
$GPRMC,194456.000,A,3214.2075,N,11057.1140,W,0.33,252.22,250218,,,A*7C
$GPRMC,194457.000,A,3214.2075,N,11057.1141,W,0.28,239.91,250218,,,A*73
$GPRMC,194458.000,A,3214.2075,N,11057.1142,W,0.30,249.94,250218,,,A*74
$GPRMC,194459.000,A,3214.2075,N,11057.1143,W,0.38,242.14,250218,,,A*7F
$GPRMC,194500.000,A,3214.2074,N,11057.1144,W,0.42,254.67,250218,,,A*7A
$GPRMC,194501.000,A,3214.2074,N,11057.1146,W,0.43,255.94,250218,,,A*75
$GPRMC,194502.000,A,3214.2074,N,11057.1147,W,0.43,263.46,250218,,,A*7D
$GPRMC,194503.000,A,3214.2074,N,11057.1148,W,0.38,254.96,250218,,,A*76
$GPRMC,194504.000,A,3214.2073,N,11057.1150,W,0.36,245.61,250218,,,A*79
$GPRMC,194505.000,A,3214.2073,N,11057.1151,W,0.37,240.10,250218,,,A*7B
$GPRMC,194506.000,A,3214.2072,N,11057.1152,W,0.41,246.24,250218,,,A*7A
$GPRMC,194507.000,A,3214.2072,N,11057.1153,W,0.45,256.48,250218,,,A*75
$GPRMC,194508.000,A,3214.2072,N,11057.1154,W,0.46,252.01,250218,,,A*77
$GPRMC,194509.000,A,3214.2071,N,11057.1156,W,0.47,237.23,250218,,,A*75
$GPRMC,194510.000,A,3214.2070,N,11057.1157,W,0.36,226.07,250218,,,A*7D
$GPRMC,194511.000,A,3214.2070,N,11057.1158,W,0.22,224.11,250218,,,A*73
$GPRMC,194512.000,A,3214.2069,N,11057.1158,W,0.12,238.57,250218,,,A*74
$GPRMC,194513.000,A,3214.2069,N,11057.1158,W,0.01,66.15,250218,,,A*48
$GPRMC,194514.000,A,3214.2069,N,11057.1158,W,0.14,43.88,250218,,,A*48
$GPRMC,194515.000,A,3214.2070,N,11057.1158,W,0.28,37.16,250218,,,A*4A
$GPRMC,194516.000,A,3214.2070,N,11057.1157,W,0.35,61.07,250218,,,A*49
$GPRMC,194517.000,A,3214.2071,N,11057.1156,W,0.37,71.59,250218,,,A*40
$GPRMC,194518.000,A,3214.2071,N,11057.1155,W,0.36,78.65,250218,,,A*4B
$GPRMC,194519.000,A,3214.2071,N,11057.1153,W,0.30,55.81,250218,,,A*4F
$GPRMC,194520.000,A,3214.2072,N,11057.1152,W,0.34,61.43,250218,,,A*4A
$GPRMC,194521.000,A,3214.2072,N,11057.1151,W,0.33,92.54,250218,,,A*45
$GPRMC,194522.000,A,3214.2072,N,11057.1150,W,0.32,114.23,250218,,,A*79
$GPRMC,194523.000,A,3214.2071,N,11057.1149,W,0.40,129.22,250218,,,A*79
$GPRMC,194524.000,A,3214.2071,N,11057.1148,W,0.34,134.02,250218,,,A*72
$GPRMC,194525.000,A,3214.2070,N,11057.1148,W,0.39,140.14,250218,,,A*7B
$GPRMC,194526.000,A,3214.2069,N,11057.1147,W,0.52,114.14,250218,,,A*73
$GPRMC,194527.000,A,3214.2068,N,11057.1145,W,0.39,137.01,250218,,,A*79
$GPRMC,194528.000,A,3214.2067,N,11057.1144,W,0.40,156.36,250218,,,A*75
$GPRMC,194529.000,A,3214.2066,N,11057.1144,W,0.36,171.17,250218,,,A*72
$GPRMC,194530.000,A,3214.2065,N,11057.1144,W,0.43,163.73,250218,,,A*7A
$GPRMC,194531.000,A,3214.2064,N,11057.1143,W,0.55,171.59,250218,,,A*71
$GPRMC,194532.000,A,3214.2062,N,11057.1143,W,0.65,177.69,250218,,,A*72
$GPRMC,194533.000,A,3214.2054,N,11057.1146,W,0.72,180.86,250218,,,A*7C
$GPRMC,194534.000,A,3214.2045,N,11057.1149,W,0.87,180.16,250218,,,A*77
$GPRMC,194535.000,A,3214.2038,N,11057.1151,W,0.91,184.34,250218,,,A*76
$GPRMC,194536.000,A,3214.2031,N,11057.1153,W,0.88,184.84,250218,,,A*7D
$GPRMC,194537.000,A,3214.2025,N,11057.1156,W,0.69,196.33,250218,,,A*7C
$GPRMC,194538.000,A,3214.2016,N,11057.1161,W,0.76,193.47,250218,,,A*7F
$GPRMC,194539.000,A,3214.2013,N,11057.1161,W,0.65,183.82,250218,,,A*71
$GPRMC,194540.000,A,3214.2009,N,11057.1161,W,0.64,172.99,250218,,,A*71
$GPRMC,194541.000,A,3214.2002,N,11057.1164,W,0.72,186.18,250218,,,A*7B
$GPRMC,194542.000,A,3214.1995,N,11057.1168,W,0.82,187.55,250218,,,A*77
$GPRMC,194543.000,A,3214.1989,N,11057.1170,W,0.80,184.19,250218,,,A*7B
$GPRMC,194544.000,A,3214.1984,N,11057.1174,W,0.78,197.13,250218,,,A*7A
$GPRMC,194545.000,A,3214.1978,N,11057.1178,W,0.74,200.76,250218,,,A*76
$GPRMC,194546.000,A,3214.1973,N,11057.1181,W,0.69,192.60,250218,,,A*7B
$GPRMC,194547.000,A,3214.1968,N,11057.1184,W,0.68,192.90,250218,,,A*7B
$GPRMC,194548.000,A,3214.1962,N,11057.1187,W,0.75,189.37,250218,,,A*76
$GPRMC,194549.000,A,3214.1958,N,11057.1189,W,0.68,183.88,250218,,,A*72
$GPRMC,194550.000,A,3214.1951,N,11057.1192,W,0.79,181.48,250218,,,A*77
$GPRMC,194551.000,A,3214.1948,N,11057.1196,W,0.69,192.58,250218,,,A*78
$GPRMC,194552.000,A,3214.1944,N,11057.1198,W,0.67,190.49,250218,,,A*75
$GPRMC,194553.000,A,3214.1940,N,11057.1201,W,0.59,191.89,250218,,,A*73
$GPRMC,194554.000,A,3214.1937,N,11057.1203,W,0.44,191.50,250218,,,A*7E
$GPRMC,194555.000,A,3214.1936,N,11057.1205,W,0.30,195.17,250218,,,A*7C
$GPRMC,194556.000,A,3214.1933,N,11057.1206,W,0.30,197.73,250218,,,A*79
$GPRMC,194557.000,A,3214.1929,N,11057.1208,W,0.43,202.64,250218,,,A*70
$GPRMC,194558.000,A,3214.1928,N,11057.1209,W,0.37,196.32,250218,,,A*71
$GPRMC,194559.000,A,3214.1927,N,11057.1209,W,0.32,202.35,250218,,,A*73
$GPRMC,194600.000,A,3214.1926,N,11057.1209,W,0.33,201.21,250218,,,A*7A
$GPRMC,194601.000,A,3214.1925,N,11057.1210,W,0.34,202.30,250218,,,A*74
$GPRMC,194602.000,A,3214.1924,N,11057.1210,W,0.32,218.73,250218,,,A*7C
$GPRMC,194603.000,A,3214.1924,N,11057.1211,W,0.29,209.93,250218,,,A*78
$GPRMC,194604.000,A,3214.1923,N,11057.1211,W,0.27,237.58,250218,,,A*7C
$GPRMC,194605.000,A,3214.1922,N,11057.1212,W,0.28,220.66,250218,,,A*7B
$GPRMC,194606.000,A,3214.1922,N,11057.1213,W,0.33,223.41,250218,,,A*75
$GPRMC,194607.000,A,3214.1921,N,11057.1214,W,0.48,221.90,250218,,,A*72
$GPRMC,194608.000,A,3214.1920,N,11057.1215,W,0.44,237.64,250218,,,A*7D
$GPRMC,194609.000,A,3214.1919,N,11057.1216,W,0.37,227.14,250218,,,A*77
$GPRMC,194610.000,A,3214.1919,N,11057.1217,W,0.27,231.11,250218,,,A*7D
$GPRMC,194611.000,A,3214.1918,N,11057.1218,W,0.30,213.19,250218,,,A*7C
$GPRMC,194612.000,A,3214.1918,N,11057.1218,W,0.26,233.53,250218,,,A*74
$GPRMC,194613.000,A,3214.1917,N,11057.1219,W,0.26,228.32,250218,,,A*76
$GPRMC,194614.000,A,3214.1917,N,11057.1219,W,0.35,206.62,250218,,,A*7A
$GPRMC,194615.000,A,3214.1916,N,11057.1220,W,0.50,191.99,250218,,,A*7A
$GPRMC,194616.000,A,3214.1914,N,11057.1220,W,0.42,208.05,250218,,,A*7E
$GPRMC,194617.000,A,3214.1913,N,11057.1221,W,0.31,217.99,250218,,,A*76
$GPRMC,194618.000,A,3214.1912,N,11057.1222,W,0.38,205.76,250218,,,A*70
$GPRMC,194619.000,A,3214.1911,N,11057.1222,W,0.44,197.45,250218,,,A*71
$GPRMC,194620.000,A,3214.1910,N,11057.1222,W,0.64,201.41,250218,,,A*70
$GPRMC,194621.000,A,3214.1906,N,11057.1223,W,0.65,205.32,250218,,,A*76
$GPRMC,194622.000,A,3214.1903,N,11057.1223,W,0.61,205.50,250218,,,A*70
$GPRMC,194623.000,A,3214.1902,N,11057.1222,W,0.50,210.18,250218,,,A*7B
$GPRMC,194624.000,A,3214.1899,N,11057.1222,W,0.50,223.25,250218,,,A*71
$GPRMC,194625.000,A,3214.1896,N,11057.1221,W,0.43,214.64,250218,,,A*7F
$GPRMC,194626.000,A,3214.1894,N,11057.1220,W,0.39,202.57,250218,,,A*75
$GPRMC,194627.000,A,3214.1893,N,11057.1220,W,0.41,184.01,250218,,,A*72
$GPRMC,194628.000,A,3214.1892,N,11057.1220,W,0.48,201.24,250218,,,A*7C
$GPRMC,194629.000,A,3214.1890,N,11057.1221,W,0.61,204.72,250218,,,A*73
$GPRMC,194630.000,A,3214.1887,N,11057.1222,W,0.61,205.45,250218,,,A*7B
$GPRMC,194631.000,A,3214.1886,N,11057.1224,W,0.55,216.95,250218,,,A*75
$GPRMC,194632.000,A,3214.1883,N,11057.1225,W,0.64,218.87,250218,,,A*7D
$GPRMC,194633.000,A,3214.1879,N,11057.1228,W,0.70,223.24,250218,,,A*70
$GPRMC,194634.000,A,3214.1875,N,11057.1230,W,0.77,217.72,250218,,,A*71
$GPRMC,194635.000,A,3214.1872,N,11057.1232,W,0.86,220.57,250218,,,A*78
$GPRMC,194636.000,A,3214.1872,N,11057.1230,W,0.74,217.26,250218,,,A*76
$GPRMC,194637.000,A,3214.1870,N,11057.1229,W,0.72,209.34,250218,,,A*77
$GPRMC,194638.000,A,3214.1869,N,11057.1228,W,0.62,214.71,250218,,,A*7D
$GPRMC,194639.000,A,3214.1868,N,11057.1228,W,0.56,217.37,250218,,,A*7B
$GPRMC,194640.000,A,3214.1864,N,11057.1226,W,0.51,195.15,250218,,,A*79
$GPRMC,194641.000,A,3214.1862,N,11057.1226,W,0.46,204.83,250218,,,A*7C
$GPRMC,194642.000,A,3214.1858,N,11057.1229,W,0.52,212.07,250218,,,A*77
$GPRMC,194643.000,A,3214.1857,N,11057.1230,W,0.74,195.31,250218,,,A*7C
$GPRMC,194644.000,A,3214.1855,N,11057.1232,W,0.69,211.48,250218,,,A*76
$GPRMC,194645.000,A,3214.1852,N,11057.1234,W,0.70,211.24,250218,,,A*74
$GPRMC,194646.000,A,3214.1849,N,11057.1236,W,0.64,217.08,250218,,,A*72
$GPRMC,194647.000,A,3214.1847,N,11057.1238,W,0.62,222.89,250218,,,A*7A
$GPRMC,194648.000,A,3214.1846,N,11057.1240,W,0.58,233.22,250218,,,A*73
$GPRMC,194649.000,A,3214.1844,N,11057.1242,W,0.55,236.82,250218,,,A*70
$GPRMC,194650.000,A,3214.1843,N,11057.1243,W,0.52,233.76,250218,,,A*77
$GPRMC,194651.000,A,3214.1841,N,11057.1245,W,0.54,228.49,250218,,,A*72
$GPRMC,194652.000,A,3214.1840,N,11057.1246,W,0.52,219.92,250218,,,A*71
$GPRMC,194653.000,A,3214.1839,N,11057.1248,W,0.50,213.59,250218,,,A*7F
$GPRMC,194654.000,A,3214.1838,N,11057.1248,W,0.42,215.45,250218,,,A*71
$GPRMC,194655.000,A,3214.1837,N,11057.1249,W,0.54,226.65,250218,,,A*7B
$GPRMC,194656.000,A,3214.1836,N,11057.1251,W,0.59,214.49,250218,,,A*72
$GPRMC,194657.000,A,3214.1830,N,11057.1256,W,0.65,206.41,250218,,,A*76
$GPRMC,194658.000,A,3214.1822,N,11057.1263,W,0.68,197.32,250218,,,A*7E
$GPRMC,194659.000,A,3214.1814,N,11057.1269,W,0.73,184.29,250218,,,A*72
$GPRMC,194700.000,A,3214.1806,N,11057.1280,W,0.78,206.59,250218,,,A*7E
$GPRMC,194701.000,A,3214.1799,N,11057.1291,W,0.83,219.75,250218,,,A*72
$GPRMC,194702.000,A,3214.1790,N,11057.1301,W,0.89,216.22,250218,,,A*77
$GPRMC,194703.000,A,3214.1785,N,11057.1309,W,0.93,221.94,250218,,,A*78
$GPRMC,194704.000,A,3214.1779,N,11057.1315,W,0.95,217.91,250218,,,A*77
$GPRMC,194705.000,A,3214.1776,N,11057.1317,W,1.01,217.13,250218,,,A*7D
$GPRMC,194706.000,A,3214.1774,N,11057.1318,W,0.96,212.12,250218,,,A*78
$GPRMC,194707.000,A,3214.1772,N,11057.1319,W,0.91,211.11,250218,,,A*79
$GPRMC,194708.000,A,3214.1770,N,11057.1321,W,0.89,215.47,250218,,,A*71
$GPRMC,194709.000,A,3214.1768,N,11057.1323,W,0.91,220.45,250218,,,A*76
$GPRMC,194710.000,A,3214.1769,N,11057.1321,W,0.88,221.06,250218,,,A*73
$GPRMC,194711.000,A,3214.1769,N,11057.1317,W,0.84,216.57,250218,,,A*7B
$GPRMC,194712.000,A,3214.1772,N,11057.1309,W,0.69,199.29,250218,,,A*73
$GPRMC,194713.000,A,3214.1773,N,11057.1301,W,0.65,173.20,250218,,,A*7A
$GPRMC,194714.000,A,3214.1779,N,11057.1291,W,0.52,166.58,250218,,,A*70
$GPRMC,194715.000,A,3214.1784,N,11057.1285,W,0.28,143.84,250218,,,A*7D
$GPRMC,194716.000,A,3214.1788,N,11057.1279,W,0.25,125.88,250218,,,A*70
$GPRMC,194717.000,A,3214.1792,N,11057.1273,W,0.40,95.02,250218,,,A*4B
$GPRMC,194718.000,A,3214.1792,N,11057.1272,W,0.37,82.49,250218,,,A*4C
$GPRMC,194719.000,A,3214.1792,N,11057.1270,W,0.26,78.83,250218,,,A*4C
$GPRMC,194720.000,A,3214.1792,N,11057.1270,W,0.21,97.00,250218,,,A*4B
$GPRMC,194721.000,A,3214.1792,N,11057.1269,W,0.47,106.09,250218,,,A*72
$GPRMC,194722.000,A,3214.1791,N,11057.1267,W,0.61,101.10,250218,,,A*77
$GPRMC,194723.000,A,3214.1793,N,11057.1269,W,0.31,80.96,250218,,,A*49
$GPRMC,194724.000,A,3214.1791,N,11057.1269,W,0.32,99.59,250218,,,A*44
$GPRMC,194725.000,A,3214.1797,N,11057.1263,W,0.35,71.04,250218,,,A*40
$GPRMC,194726.000,A,3214.1810,N,11057.1254,W,0.55,45.18,250218,,,D*4E
$GPRMC,194727.000,A,3214.1818,N,11057.1245,W,0.74,43.40,250218,,,D*4F
$GPRMC,194728.000,A,3214.1834,N,11057.1234,W,1.09,38.48,250218,,,D*47
$GPRMC,194729.000,A,3214.1847,N,11057.1224,W,1.38,41.42,250218,,,D*45
$GPRMC,194730.000,A,3214.1850,N,11057.1220,W,1.30,44.08,250218,,,D*4C
$GPRMC,194731.000,A,3214.1853,N,11057.1215,W,1.30,48.39,250218,,,D*46
$GPRMC,194732.000,A,3214.1856,N,11057.1210,W,1.28,50.80,250218,,,D*47
$GPRMC,194733.000,A,3214.1865,N,11057.1204,W,1.31,43.69,250218,,,D*4E
$GPRMC,194734.000,A,3214.1874,N,11057.1195,W,1.44,46.30,250218,,,D*49
$GPRMC,194735.000,A,3214.1885,N,11057.1188,W,1.47,44.47,250218,,,D*4B
$GPRMC,194736.000,A,3214.1895,N,11057.1180,W,1.57,43.32,250218,,,D*45
$GPRMC,194737.000,A,3214.1905,N,11057.1172,W,1.71,46.92,250218,,,D*4A
$GPRMC,194738.000,A,3214.1914,N,11057.1166,W,1.72,42.50,250218,,,D*49
$GPRMC,194739.000,A,3214.1923,N,11057.1161,W,1.82,36.63,250218,,,D*47
$GPRMC,194740.000,A,3214.1929,N,11057.1157,W,1.80,37.56,250218,,,D*43
$GPRMC,194741.000,A,3214.1934,N,11057.1152,W,1.84,41.91,250218,,,D*45
$GPRMC,194742.000,A,3214.1939,N,11057.1147,W,1.79,42.76,250218,,,D*47
$GPRMC,194743.000,A,3214.1942,N,11057.1144,W,1.73,42.76,250218,,,D*43
$GPRMC,194744.000,A,3214.1948,N,11057.1140,W,1.69,44.56,250218,,,D*45
$GPRMC,194745.000,A,3214.1953,N,11057.1138,W,1.67,38.12,250218,,,D*44
$GPRMC,194746.000,A,3214.1951,N,11057.1139,W,1.50,46.70,250218,,,D*4D
$GPRMC,194747.000,A,3214.1951,N,11057.1140,W,1.46,49.97,250218,,,D*43
$GPRMC,194748.000,A,3214.1946,N,11057.1152,W,1.29,35.94,250218,,,D*48
$GPRMC,194749.000,A,3214.1938,N,11057.1161,W,1.02,35.69,250218,,,D*4B
$GPRMC,194750.000,A,3214.1939,N,11057.1160,W,0.94,38.67,250218,,,D*4E
$GPRMC,194751.000,A,3214.1937,N,11057.1158,W,0.88,53.15,250218,,,D*4F
$GPRMC,194752.000,A,3214.1938,N,11057.1156,W,0.87,52.52,250218,,,D*40
$GPRMC,194753.000,A,3214.1929,N,11057.1164,W,0.63,48.99,250218,,,D*46
$GPRMC,194754.000,A,3214.1921,N,11057.1170,W,0.54,60.07,250218,,,D*45
$GPRMC,194755.000,A,3214.1920,N,11057.1170,W,0.47,53.65,250218,,,D*43
$GPRMC,194756.000,A,3214.1919,N,11057.1169,W,0.45,61.34,250218,,,D*45
$GPRMC,194757.000,A,3214.1918,N,11057.1168,W,0.44,61.25,250218,,,D*45
$GPRMC,194758.000,A,3214.1916,N,11057.1167,W,0.54,78.70,250218,,,D*42
$GPRMC,194759.000,A,3214.1916,N,11057.1165,W,0.56,70.93,250218,,,D*46
$GPRMC,194800.000,A,3214.1916,N,11057.1164,W,0.57,73.97,250218,,,D*42
$GPRMC,194801.000,A,3214.1916,N,11057.1163,W,0.48,64.59,250218,,,D*4E
$GPRMC,194802.000,A,3214.1916,N,11057.1164,W,0.39,48.33,250218,,,D*4E
$GPRMC,194803.000,A,3214.1917,N,11057.1165,W,0.34,33.71,250218,,,D*48
$GPRMC,194804.000,A,3214.1917,N,11057.1165,W,0.29,26.94,250218,,,D*4C
$GPRMC,194805.000,A,3214.1915,N,11057.1165,W,0.29,54.94,250218,,,D*4A
$GPRMC,194806.000,A,3214.1906,N,11057.1177,W,0.12,46.51,250218,,,D*4A
$GPRMC,194807.000,A,3214.1901,N,11057.1182,W,0.11,108.67,250218,,,D*7B
$GPRMC,194808.000,A,3214.1903,N,11057.1180,W,0.13,42.77,250218,,,D*48
$GPRMC,194809.000,A,3214.1903,N,11057.1180,W,0.02,126.04,250218,,,D*7E
$GPRMC,194810.000,A,3214.1903,N,11057.1180,W,0.10,238.05,250218,,,D*78
$GPRMC,194811.000,A,3214.1903,N,11057.1181,W,0.19,223.27,250218,,,D*7B
$GPRMC,194812.000,A,3214.1903,N,11057.1181,W,0.16,172.68,250218,,,D*7B
$GPRMC,194813.000,A,3214.1902,N,11057.1181,W,0.13,101.50,250218,,,D*71
$GPRMC,194814.000,A,3214.1902,N,11057.1181,W,0.16,58.76,250218,,,D*4A
$GPRMC,194815.000,A,3214.1903,N,11057.1180,W,0.13,75.88,250218,,,D*40
$GPRMC,194816.000,A,3214.1903,N,11057.1180,W,0.09,94.07,250218,,,D*40
$GPRMC,194817.000,A,3214.1903,N,11057.1179,W,0.21,134.30,250218,,,D*72
$GPRMC,194818.000,A,3214.1902,N,11057.1179,W,0.39,138.14,250218,,,D*7F
$GPRMC,194819.000,A,3214.1902,N,11057.1178,W,0.24,125.60,250218,,,D*7C
$GPRMC,194820.000,A,3214.1901,N,11057.1177,W,0.17,121.86,250218,,,D*76
$GPRMC,194821.000,A,3214.1901,N,11057.1177,W,0.21,102.20,250218,,,D*7F
$GPRMC,194822.000,A,3214.1901,N,11057.1176,W,0.16,94.51,250218,,,D*41
$GPRMC,194823.000,A,3214.1901,N,11057.1176,W,0.25,63.27,250218,,,D*49
$GPRMC,194824.000,A,3214.1901,N,11057.1175,W,0.21,52.71,250218,,,D*48
$GPRMC,194825.000,A,3214.1902,N,11057.1174,W,0.28,51.75,250218,,,D*45
$GPRMC,194826.000,A,3214.1903,N,11057.1174,W,0.43,35.24,250218,,,D*4C
$GPRMC,194827.000,A,3214.1904,N,11057.1173,W,0.46,37.79,250218,,,D*42
$GPRMC,194828.000,A,3214.1905,N,11057.1172,W,0.44,34.45,250218,,,D*43
$GPRMC,194829.000,A,3214.1906,N,11057.1171,W,0.34,37.73,250218,,,D*43
$GPRMC,194830.000,A,3214.1906,N,11057.1170,W,0.34,12.61,250218,,,D*4E
$GPRMC,194831.000,A,3214.1907,N,11057.1170,W,0.36,5.73,250218,,,D*79
$GPRMC,194832.000,A,3214.1908,N,11057.1170,W,0.23,356.15,250218,,,D*74
$GPRMC,194833.000,A,3214.1909,N,11057.1170,W,0.36,3.84,250218,,,D*7B
$GPRMC,194834.000,A,3214.1910,N,11057.1170,W,0.44,7.70,250218,,,D*7E
$GPRMC,194835.000,A,3214.1911,N,11057.1170,W,0.46,9.67,250218,,,D*74
$GPRMC,194836.000,A,3214.1913,N,11057.1169,W,0.33,14.87,250218,,,D*4D
$GPRMC,194837.000,A,3214.1914,N,11057.1169,W,0.52,8.61,250218,,,D*79
$GPRMC,194838.000,A,3214.1915,N,11057.1169,W,0.48,2.40,250218,,,D*75
$GPRMC,194839.000,A,3214.1917,N,11057.1169,W,0.40,1.23,250218,,,D*78
$GPRMC,194840.000,A,3214.1918,N,11057.1169,W,0.28,0.72,250218,,,D*72
$GPRMC,194841.000,A,3214.1918,N,11057.1169,W,0.34,343.30,250218,,,D*7C
$GPRMC,194842.000,A,3214.1919,N,11057.1169,W,0.39,346.11,250218,,,D*75
$GPRMC,194843.000,A,3214.1920,N,11057.1169,W,0.36,343.58,250218,,,D*79
$GPRMC,194844.000,A,3214.1921,N,11057.1170,W,0.39,338.17,250218,,,D*7F
$GPRMC,194845.000,A,3214.1923,N,11057.1170,W,0.48,349.52,250218,,,D*7D
$GPRMC,194846.000,A,3214.1924,N,11057.1171,W,0.41,359.83,250218,,,D*7C
$GPRMC,194847.000,A,3214.1925,N,11057.1171,W,0.37,7.07,250218,,,D*79
$GPRMC,194848.000,A,3214.1926,N,11057.1170,W,0.38,3.06,250218,,,D*7E
$GPRMC,194849.000,A,3214.1927,N,11057.1170,W,0.28,355.36,250218,,,D*7C
$GPRMC,194850.000,A,3214.1928,N,11057.1170,W,0.13,3.14,250218,,,D*73
$GPRMC,194851.000,A,3214.1928,N,11057.1170,W,0.12,343.23,250218,,,D*70
$GPRMC,194852.000,A,3214.1929,N,11057.1170,W,0.09,8.77,250218,,,D*75
$GPRMC,194853.000,A,3214.1929,N,11057.1170,W,0.20,14.47,250218,,,D*41
$GPRMC,194854.000,A,3214.1930,N,11057.1170,W,0.48,17.93,250218,,,D*4A
$GPRMC,194855.000,A,3214.1931,N,11057.1170,W,0.43,16.49,250218,,,D*47
$GPRMC,194856.000,A,3214.1932,N,11057.1169,W,0.44,1.93,250218,,,D*79
$GPRMC,194857.000,A,3214.1934,N,11057.1169,W,0.58,1.78,250218,,,D*76
$GPRMC,194858.000,A,3214.1935,N,11057.1169,W,0.73,9.83,250218,,,D*7D
$GPRMC,194859.000,A,3214.1941,N,11057.1167,W,0.76,20.48,250218,,,D*48
$GPRMC,194900.000,A,3214.1946,N,11057.1164,W,0.78,30.53,250218,,,D*44
$GPRMC,194901.000,A,3214.1952,N,11057.1161,W,0.76,33.35,250218,,,D*48
$GPRMC,194902.000,A,3214.1959,N,11057.1158,W,0.80,32.24,250218,,,D*42
$GPRMC,194903.000,A,3214.1964,N,11057.1157,W,0.79,27.65,250218,,,D*45
$GPRMC,194904.000,A,3214.1967,N,11057.1155,W,0.74,27.86,250218,,,D*43
$GPRMC,194905.000,A,3214.1971,N,11057.1153,W,0.78,26.60,250218,,,D*46
$GPRMC,194906.000,A,3214.1975,N,11057.1151,W,0.75,24.37,250218,,,D*4E
$GPRMC,194907.000,A,3214.1982,N,11057.1147,W,0.82,24.04,250218,,,D*48
$GPRMC,194908.000,A,3214.1987,N,11057.1145,W,0.84,23.64,250218,,,D*47
$GPRMC,194909.000,A,3214.1993,N,11057.1142,W,0.92,22.88,250218,,,D*40
$GPRMC,194910.000,A,3214.1999,N,11057.1138,W,0.97,23.74,250218,,,D*48
$GPRMC,194911.000,A,3214.2004,N,11057.1135,W,0.92,24.44,250218,,,D*4B
$GPRMC,194912.000,A,3214.2008,N,11057.1134,W,0.78,23.85,250218,,,D*4B
$GPRMC,194913.000,A,3214.2010,N,11057.1131,W,0.73,30.13,250218,,,D*40
$GPRMC,194914.000,A,3214.2014,N,11057.1129,W,0.79,29.97,250218,,,D*44
$GPRMC,194915.000,A,3214.2017,N,11057.1126,W,0.75,31.62,250218,,,D*46
$GPRMC,194916.000,A,3214.2019,N,11057.1125,W,0.63,34.37,250218,,,D*4A
$GPRMC,194917.000,A,3214.2022,N,11057.1125,W,0.62,26.00,250218,,,D*45
$GPRMC,194918.000,A,3214.2024,N,11057.1125,W,0.54,23.03,250218,,,D*4F
$GPRMC,194919.000,A,3214.2024,N,11057.1122,W,0.50,37.11,250218,,,D*4B
$GPRMC,194920.000,A,3214.2023,N,11057.1121,W,0.51,44.21,250218,,,D*43
$GPRMC,194921.000,A,3214.2021,N,11057.1119,W,0.46,62.67,250218,,,D*4B
$GPRMC,194922.000,A,3214.2022,N,11057.1118,W,0.41,74.83,250218,,,D*40
$GPRMC,194923.000,A,3214.2022,N,11057.1116,W,0.39,78.12,250218,,,D*44
$GPRMC,194924.000,A,3214.2023,N,11057.1115,W,0.33,62.31,250218,,,D*41
$GPRMC,194925.000,A,3214.2023,N,11057.1114,W,0.28,59.95,250218,,,D*4D
$GPRMC,194926.000,A,3214.2023,N,11057.1113,W,0.25,82.43,250218,,,D*49
$GPRMC,194927.000,A,3214.2023,N,11057.1113,W,0.26,100.00,250218,,,D*77
$GPRMC,194928.000,A,3214.2023,N,11057.1112,W,0.29,110.83,250218,,,D*7C
$GPRMC,194929.000,A,3214.2023,N,11057.1111,W,0.29,111.83,250218,,,D*7F
$GPRMC,194930.000,A,3214.2023,N,11057.1110,W,0.29,116.18,250218,,,D*73
$GPRMC,194931.000,A,3214.2022,N,11057.1109,W,0.30,121.94,250218,,,D*73
$GPRMC,194932.000,A,3214.2022,N,11057.1108,W,0.33,130.35,250218,,,D*79
$GPRMC,194933.000,A,3214.2021,N,11057.1107,W,0.32,136.47,250218,,,D*76
$GPRMC,194934.000,A,3214.2020,N,11057.1107,W,0.20,118.88,250218,,,D*7C
$GPRMC,194935.000,A,3214.2020,N,11057.1106,W,0.15,76.74,250218,,,D*40
$GPRMC,194936.000,A,3214.2020,N,11057.1106,W,0.12,61.36,250218,,,D*44
$GPRMC,194937.000,A,3214.2020,N,11057.1105,W,0.15,51.82,250218,,,D*4D
$GPRMC,194938.000,A,3214.2021,N,11057.1105,W,0.17,60.36,250218,,,D*4C
$GPRMC,194939.000,A,3214.2021,N,11057.1104,W,0.16,94.45,250218,,,D*42
$GPRMC,194940.000,A,3214.2021,N,11057.1104,W,0.20,112.42,250218,,,D*71
$GPRMC,194941.000,A,3214.2021,N,11057.1103,W,0.23,69.99,250218,,,D*4F
$GPRMC,194942.000,A,3214.2021,N,11057.1103,W,0.32,56.71,250218,,,D*46
$GPRMC,194943.000,A,3214.2021,N,11057.1102,W,0.27,67.50,250218,,,D*43
$GPRMC,194944.000,A,3214.2022,N,11057.1101,W,0.25,97.87,250218,,,D*43
$GPRMC,194945.000,A,3214.2021,N,11057.1100,W,0.29,135.70,250218,,,D*7D
$GPRMC,194946.000,A,3214.2021,N,11057.1100,W,0.36,157.10,250218,,,D*72
$GPRMC,194947.000,A,3214.2020,N,11057.1099,W,0.45,168.01,250218,,,D*7B
$GPRMC,194948.000,A,3214.2018,N,11057.1099,W,0.48,172.29,250218,,,D*73
$GPRMC,194949.000,A,3214.2017,N,11057.1099,W,0.51,172.59,250218,,,D*72
$GPRMC,194950.000,A,3214.2016,N,11057.1098,W,0.59,178.46,250218,,,D*76
$GPRMC,194951.000,A,3214.2010,N,11057.1101,W,0.65,181.37,250218,,,D*7F
$GPRMC,194952.000,A,3214.2005,N,11057.1100,W,0.67,176.60,250218,,,D*71
$GPRMC,194953.000,A,3214.2002,N,11057.1100,W,0.68,177.95,250218,,,D*73
$GPRMC,194954.000,A,3214.1997,N,11057.1099,W,0.71,172.76,250218,,,D*73
$GPRMC,194955.000,A,3214.1992,N,11057.1098,W,0.68,167.45,250218,,,D*7A
$GPRMC,194956.000,A,3214.1987,N,11057.1099,W,0.70,169.34,250218,,,D*7D
$GPRMC,194957.000,A,3214.1983,N,11057.1100,W,0.74,171.96,250218,,,D*7C
$GPRMC,194958.000,A,3214.1974,N,11057.1098,W,0.89,168.88,250218,,,D*7E
$GPRMC,194959.000,A,3214.1969,N,11057.1096,W,0.87,164.92,250218,,,D*74
$GPRMC,195000.000,A,3214.1963,N,11057.1094,W,0.89,163.63,250218,,,D*7F
$GPRMC,195001.000,A,3214.1956,N,11057.1091,W,0.98,160.90,250218,,,D*72
$GPRMC,195002.000,A,3214.1950,N,11057.1088,W,1.05,158.59,250218,,,D*74
$GPRMC,195003.000,A,3214.1956,N,11057.1093,W,0.88,161.53,250218,,,D*7D
$GPRMC,195004.000,A,3214.1956,N,11057.1095,W,0.84,163.52,250218,,,D*73
$GPRMC,195005.000,A,3214.1954,N,11057.1095,W,0.89,163.94,250218,,,D*77
$GPRMC,195006.000,A,3214.1954,N,11057.1096,W,0.86,165.54,250218,,,D*72
$GPRMC,195007.000,A,3214.1955,N,11057.1098,W,0.82,169.28,250218,,,D*7F
$GPRMC,195008.000,A,3214.1957,N,11057.1101,W,0.71,174.14,250218,,,D*7C
$GPRMC,195009.000,A,3214.1958,N,11057.1104,W,0.65,177.93,250218,,,D*7E
$GPRMC,195010.000,A,3214.1958,N,11057.1106,W,0.63,178.06,250218,,,D*71
$GPRMC,195011.000,A,3214.1957,N,11057.1108,W,0.59,178.26,250218,,,D*7A
$GPRMC,195012.000,A,3214.1959,N,11057.1110,W,0.45,183.15,250218,,,D*77
$GPRMC,195013.000,A,3214.1959,N,11057.1112,W,0.42,187.43,250218,,,D*74
$GPRMC,195014.000,A,3214.1958,N,11057.1115,W,0.42,197.47,250218,,,D*70
$GPRMC,195015.000,A,3214.1958,N,11057.1117,W,0.44,199.09,250218,,,D*71
$GPRMC,195016.000,A,3214.1956,N,11057.1117,W,0.51,195.20,250218,,,D*7F
$GPRMC,195017.000,A,3214.1955,N,11057.1118,W,0.54,191.01,250218,,,D*70
$GPRMC,195018.000,A,3214.1954,N,11057.1118,W,0.57,186.98,250218,,,D*7B
$GPRMC,195019.000,A,3214.1952,N,11057.1118,W,0.57,184.25,250218,,,D*78
$GPRMC,195020.000,A,3214.1950,N,11057.1119,W,0.58,182.33,250218,,,D*7F
$GPRMC,195021.000,A,3214.1949,N,11057.1119,W,0.65,183.35,250218,,,D*7F
$GPRMC,195022.000,A,3214.1945,N,11057.1121,W,0.72,187.91,250218,,,D*77
$GPRMC,195023.000,A,3214.1940,N,11057.1124,W,0.83,190.04,250218,,,D*72
$GPRMC,195024.000,A,3214.1934,N,11057.1123,W,0.92,188.69,250218,,,D*73
$GPRMC,195025.000,A,3214.1930,N,11057.1125,W,1.01,187.36,250218,,,D*7E
$GPRMC,195026.000,A,3214.1928,N,11057.1126,W,1.00,188.67,250218,,,D*7D
$GPRMC,195027.000,A,3214.1928,N,11057.1127,W,0.94,191.97,250218,,,D*76
$GPRMC,195028.000,A,3214.1929,N,11057.1129,W,0.81,197.29,250218,,,D*71
$GPRMC,195029.000,A,3214.1930,N,11057.1130,W,0.76,199.30,250218,,,D*7E
$GPRMC,195030.000,A,3214.1931,N,11057.1132,W,0.72,202.87,250218,,,D*7C
$GPRMC,195031.000,A,3214.1932,N,11057.1131,W,0.66,199.91,250218,,,D*7E
$GPRMC,195032.000,A,3214.1934,N,11057.1132,W,0.59,203.63,250218,,,D*79
$GPRMC,195033.000,A,3214.1933,N,11057.1131,W,0.58,202.19,250218,,,D*71
$GPRMC,195034.000,A,3214.1933,N,11057.1130,W,0.57,201.52,250218,,,D*74
$GPRMC,195035.000,A,3214.1936,N,11057.1128,W,0.40,205.95,250218,,,D*70
$GPRMC,195036.000,A,3214.1938,N,11057.1128,W,0.29,210.64,250218,,,D*78
$GPRMC,195037.000,A,3214.1937,N,11057.1128,W,0.16,224.36,250218,,,D*7A
$GPRMC,195038.000,A,3214.1937,N,11057.1128,W,0.10,239.01,250218,,,D*7B
$GPRMC,195039.000,A,3214.1937,N,11057.1129,W,0.10,290.08,250218,,,D*71
$GPRMC,195040.000,A,3214.1937,N,11057.1129,W,0.17,318.33,250218,,,D*71
$GPRMC,195041.000,A,3214.1937,N,11057.1129,W,0.26,336.42,250218,,,D*78
$GPRMC,195042.000,A,3214.1938,N,11057.1130,W,0.35,339.26,250218,,,D*73
$GPRMC,195043.000,A,3214.1939,N,11057.1130,W,0.43,333.12,250218,,,D*7F
$GPRMC,195044.000,A,3214.1940,N,11057.1131,W,0.56,333.10,250218,,,D*71
$GPRMC,195045.000,A,3214.1942,N,11057.1132,W,0.63,337.95,250218,,,D*7E
$GPRMC,195046.000,A,3214.1949,N,11057.1132,W,0.69,343.27,250218,,,D*76
$GPRMC,195047.000,A,3214.1955,N,11057.1131,W,0.75,348.19,250218,,,D*72
$GPRMC,195048.000,A,3214.1959,N,11057.1128,W,0.80,354.86,250218,,,D*78
$GPRMC,195049.000,A,3214.1967,N,11057.1123,W,0.97,3.78,250218,,,D*79
$GPRMC,195050.000,A,3214.1973,N,11057.1119,W,1.07,8.99,250218,,,D*71
$GPRMC,195051.000,A,3214.1979,N,11057.1118,W,0.97,11.67,250218,,,D*4A
$GPRMC,195052.000,A,3214.1984,N,11057.1116,W,0.88,16.42,250218,,,D*4B
$GPRMC,195053.000,A,3214.1990,N,11057.1115,W,0.89,18.36,250218,,,D*40
$GPRMC,195054.000,A,3214.1997,N,11057.1115,W,0.91,16.51,250218,,,D*46
$GPRMC,195055.000,A,3214.2002,N,11057.1115,W,0.86,16.83,250218,,,D*48
$GPRMC,195056.000,A,3214.2005,N,11057.1114,W,0.84,17.69,250218,,,D*4A
$GPRMC,195057.000,A,3214.2009,N,11057.1114,W,0.83,15.97,250218,,,D*43
$GPRMC,195058.000,A,3214.2012,N,11057.1114,W,0.82,14.33,250218,,,D*48
$GPRMC,195059.000,A,3214.2014,N,11057.1114,W,0.77,12.90,250218,,,D*4A
$GPRMC,195100.000,A,3214.2015,N,11057.1114,W,0.70,9.79,250218,,,D*7C
$GPRMC,195101.000,A,3214.2017,N,11057.1115,W,0.65,5.82,250218,,,D*72
$GPRMC,195102.000,A,3214.2018,N,11057.1116,W,0.61,2.95,250218,,,D*78
$GPRMC,195103.000,A,3214.2019,N,11057.1117,W,0.61,0.01,250218,,,D*76
$GPRMC,195104.000,A,3214.2021,N,11057.1118,W,0.62,355.08,250218,,,D*7C
$GPRMC,195105.000,A,3214.2022,N,11057.1120,W,0.62,349.51,250218,,,D*74
$GPRMC,195106.000,A,3214.2023,N,11057.1122,W,0.63,345.67,250218,,,D*7C
$GPRMC,195107.000,V,,,,,0.63,342.73,250218,,,E*45
$GPRMC,195108.000,A,3214.2026,N,11057.1127,W,0.62,334.28,250218,,,D*7E
$GPRMC,195109.000,A,3214.2028,N,11057.1129,W,0.63,334.63,250218,,,D*71
$GPRMC,195110.000,A,3214.2031,N,11057.1131,W,0.67,334.39,250218,,,D*73
$GPRMC,195111.000,A,3214.2032,N,11057.1134,W,0.69,334.03,250218,,,D*73
$GPRMC,195112.000,A,3214.2035,N,11057.1132,W,0.72,342.14,250218,,,D*7C
$GPRMC,195113.000,A,3214.2039,N,11057.1130,W,0.75,347.60,250218,,,D*72
$GPRMC,195114.000,V,,,,,0.80,350.49,250218,,,E*40
$GPRMC,195115.000,V,,,,,0.83,350.92,250218,,,E*44
$GPRMC,195116.000,V,,,,,0.87,350.87,250218,,,E*47
$GPRMC,195117.000,V,,,,,0.96,354.24,250218,,,E*4B
$GPRMC,195118.000,V,,,,,1.08,354.88,250218,,,E*44
$GPRMC,195119.000,V,,,,,1.15,352.80,250218,,,E*47
$GPRMC,195120.000,A,3214.2078,N,11057.1130,W,1.14,347.94,250218,,,D*7A
$GPRMC,195121.000,V,,,,,1.09,345.06,250218,,,E*49
$GPRMC,195122.000,V,,,,,1.03,342.22,250218,,,E*41
$GPRMC,195123.000,A,3214.2082,N,11057.1132,W,0.99,342.61,250218,,,D*75
$GPRMC,195124.000,A,3214.2084,N,11057.1131,W,0.97,343.01,250218,,,D*7E
$GPRMC,195125.000,A,3214.2086,N,11057.1130,W,0.96,345.13,250218,,,D*78
$GPRMC,195126.000,V,,,,,0.90,344.73,250218,,,E*4C
$GPRMC,195127.000,A,3214.2085,N,11057.1136,W,0.88,339.31,250218,,,D*7B
$GPRMC,195128.000,A,3214.2085,N,11057.1139,W,0.87,336.20,250218,,,D*7B
$GPRMC,195129.000,A,3214.2087,N,11057.1140,W,0.87,335.56,250218,,,D*74
$GPRMC,195130.000,A,3214.2086,N,11057.1143,W,0.84,334.62,250218,,,D*7B
$GPRMC,195131.000,A,3214.2086,N,11057.1143,W,0.79,333.59,250218,,,D*77
$GPRMC,195132.000,A,3214.2085,N,11057.1145,W,0.75,327.89,250218,,,D*75
$GPRMC,195133.000,A,3214.2083,N,11057.1148,W,0.71,321.28,250218,,,D*76
$GPRMC,195134.000,A,3214.2081,N,11057.1151,W,0.67,317.15,250218,,,D*77
$GPRMC,195135.000,A,3214.2084,N,11057.1146,W,0.60,326.20,250218,,,D*76
$GPRMC,195136.000,A,3214.2085,N,11057.1143,W,0.54,330.61,250218,,,D*74
$GPRMC,195137.000,A,3214.2083,N,11057.1145,W,0.50,326.44,250218,,,D*71
$GPRMC,195138.000,A,3214.2079,N,11057.1150,W,0.47,310.45,250218,,,D*7D
$GPRMC,195139.000,A,3214.2075,N,11057.1159,W,0.52,295.84,250218,,,D*7C
$GPRMC,195140.000,A,3214.2076,N,11057.1160,W,0.56,287.23,250218,,,D*71
$GPRMC,195141.000,A,3214.2076,N,11057.1162,W,0.58,284.51,250218,,,D*7A
$GPRMC,195142.000,A,3214.2077,N,11057.1164,W,0.61,287.17,250218,,,D*75
$GPRMC,195143.000,A,3214.2079,N,11057.1168,W,0.61,287.22,250218,,,D*70
$GPRMC,195144.000,A,3214.2084,N,11057.1175,W,0.67,289.53,250218,,,D*77
$GPRMC,195145.000,A,3214.2085,N,11057.1177,W,0.65,291.02,250218,,,D*7A
$GPRMC,195146.000,A,3214.2084,N,11057.1180,W,0.64,289.43,250218,,,D*7D
$GPRMC,195147.000,A,3214.2088,N,11057.1185,W,0.68,291.55,250218,,,D*77
$GPRMC,195148.000,A,3214.2095,N,11057.1191,W,0.72,294.03,250218,,,D*7C
$GPRMC,195149.000,A,3214.2094,N,11057.1191,W,0.70,293.43,250218,,,D*7D
$GPRMC,195150.000,A,3214.2095,N,11057.1195,W,0.72,292.72,250218,,,D*71
$GPRMC,195151.000,A,3214.2095,N,11057.1200,W,0.74,290.60,250218,,,D*78
$GPRMC,195152.000,A,3214.2096,N,11057.1205,W,0.76,288.55,250218,,,D*70
$GPRMC,195153.000,A,3214.2092,N,11057.1207,W,0.73,287.14,250218,,,D*78
$GPRMC,195154.000,A,3214.2089,N,11057.1210,W,0.71,284.94,250218,,,D*7A
$GPRMC,195155.000,A,3214.2085,N,11057.1208,W,0.62,284.00,250218,,,D*71
$GPRMC,195156.000,A,3214.2070,N,11057.1200,W,0.48,271.96,250218,,,D*7D
$GPRMC,195157.000,A,3214.2052,N,11057.1186,W,0.31,249.20,250218,,,D*79
$GPRMC,195158.000,A,3214.2037,N,11057.1173,W,0.25,220.98,250218,,,D*76
$GPRMC,195159.000,A,3214.2018,N,11057.1156,W,0.30,173.48,250218,,,D*71
$GPRMC,195200.000,A,3214.2016,N,11057.1155,W,0.76,156.62,250218,,,D*7E
$GPRMC,195201.000,A,3214.1949,N,11057.1111,W,1.28,153.46,250218,,,D*76
$GPRMC,195202.000,A,3214.1929,N,11057.1098,W,1.37,154.56,250218,,,D*7B
$GPRMC,195203.000,A,3214.1904,N,11057.1084,W,1.45,158.03,250218,,,D*71
$GPRMC,195204.000,A,3214.1890,N,11057.1077,W,1.49,160.45,250218,,,D*73
$GPRMC,195205.000,A,3214.1888,N,11057.1076,W,1.43,162.88,250218,,,D*73
$GPRMC,195206.000,A,3214.1886,N,11057.1076,W,1.37,164.90,250218,,,D*72
$GPRMC,195207.000,A,3214.1881,N,11057.1073,W,1.31,164.38,250218,,,D*75
$GPRMC,195208.000,A,3214.1877,N,11057.1074,W,1.22,165.73,250218,,,D*78
$GPRMC,195209.000,A,3214.1874,N,11057.1072,W,1.15,165.74,250218,,,D*7F
$GPRMC,195210.000,A,3214.1873,N,11057.1069,W,1.01,168.73,250218,,,D*75
$GPRMC,195211.000,A,3214.1878,N,11057.1071,W,0.82,172.38,250218,,,D*78
$GPRMC,195212.000,A,3214.1878,N,11057.1070,W,0.74,174.46,250218,,,D*7C
$GPRMC,195213.000,A,3214.1881,N,11057.1067,W,0.65,167.62,250218,,,D*79
$GPRMC,195214.000,A,3214.1886,N,11057.1067,W,0.60,170.11,250218,,,D*7E
$GPRMC,195215.000,A,3214.1887,N,11057.1068,W,0.60,175.50,250218,,,D*71
$GPRMC,195216.000,A,3214.1886,N,11057.1070,W,0.60,179.47,250218,,,D*70
$GPRMC,195217.000,A,3214.1888,N,11057.1071,W,0.46,177.55,250218,,,D*77
$GPRMC,195218.000,A,3214.1890,N,11057.1073,W,0.38,185.41,250218,,,D*72
$GPRMC,195219.000,A,3214.1892,N,11057.1075,W,0.27,199.63,250218,,,D*74
$GPRMC,195220.000,A,3214.1894,N,11057.1077,W,0.20,209.05,250218,,,D*77
$GPRMC,195221.000,A,3214.1894,N,11057.1077,W,0.14,221.16,250218,,,D*79
$GPRMC,195222.000,A,3214.1894,N,11057.1078,W,0.11,218.52,250218,,,D*7A
$GPRMC,195223.000,A,3214.1893,N,11057.1078,W,0.05,262.78,250218,,,D*7C
$GPRMC,195224.000,A,3214.1893,N,11057.1078,W,0.11,310.84,250218,,,D*79
$GPRMC,195225.000,A,3214.1894,N,11057.1079,W,0.14,317.54,250218,,,D*71
$GPRMC,195226.000,A,3214.1894,N,11057.1079,W,0.12,308.01,250218,,,D*7A
$GPRMC,195227.000,A,3214.1894,N,11057.1079,W,0.11,251.63,250218,,,D*71
$GPRMC,195228.000,A,3214.1894,N,11057.1080,W,0.14,258.14,250218,,,D*74
$GPRMC,195229.000,A,3214.1894,N,11057.1080,W,0.14,269.97,250218,,,D*7C
$GPRMC,195230.000,A,3214.1894,N,11057.1081,W,0.20,249.91,250218,,,D*76
$GPRMC,195231.000,A,3214.1894,N,11057.1081,W,0.19,262.08,250218,,,D*74
$GPRMC,195232.000,A,3214.1894,N,11057.1082,W,0.16,279.10,250218,,,D*78
$GPRMC,195233.000,A,3214.1894,N,11057.1082,W,0.25,313.36,250218,,,D*70
$GPRMC,195234.000,A,3214.1894,N,11057.1083,W,0.27,320.58,250218,,,D*7C
$GPRMC,195235.000,A,3214.1895,N,11057.1084,W,0.26,332.14,250218,,,D*71
$GPRMC,195236.000,A,3214.1896,N,11057.1084,W,0.29,344.31,250218,,,D*78
$GPRMC,195237.000,A,3214.1896,N,11057.1084,W,0.29,354.45,250218,,,D*7B
$GPRMC,195238.000,A,3214.1897,N,11057.1084,W,0.30,2.01,250218,,,D*7D
$GPRMC,195239.000,A,3214.1898,N,11057.1084,W,0.27,356.16,250218,,,D*71
$GPRMC,195240.000,A,3214.1899,N,11057.1084,W,0.25,345.35,250218,,,D*7F
$GPRMC,195241.000,A,3214.1899,N,11057.1085,W,0.26,317.53,250218,,,D*7B
$GPRMC,195242.000,A,3214.1900,N,11057.1085,W,0.30,319.99,250218,,,D*76
$GPRMC,195243.000,A,3214.1901,N,11057.1086,W,0.29,327.25,250218,,,D*77
$GPRMC,195244.000,A,3214.1901,N,11057.1086,W,0.26,336.10,250218,,,D*79
$GPRMC,195245.000,A,3214.1902,N,11057.1087,W,0.20,331.14,250218,,,D*7F
